[
    {
        "Nome":"SANTA CRUZ DE SALINA",
        "LONGITUDE":-41.748384,
        "LATITUDE":-16.097982
    },
    {
        "Nome":"BRASAMUNDO I",
        "LONGITUDE":-41.761984,
        "LATITUDE":-16.137167
    },
    {
        "Nome":"SANTO ANTÔNIO",
        "LONGITUDE":-41.803752,
        "LATITUDE":-16.123261
    },
    {
        "Nome":"SÃO JOSÉ ",
        "LONGITUDE":-41.826904,
        "LATITUDE":-16.170801
    },
    {
        "Nome":"CÓRREGO DOS BREJOS",
        "LONGITUDE":-41.843264,
        "LATITUDE":-16.148512
    },
    {
        "Nome":"CAPIM DE CHEIRO",
        "LONGITUDE":-41.83782,
        "LATITUDE":-16.119671
    },
    {
        "Nome":"CÓRREGO DO CALANGO",
        "LONGITUDE":-41.829351,
        "LATITUDE":-16.098302
    },
    {
        "Nome":"FORQUINLHA",
        "LONGITUDE":-41.85919,
        "LATITUDE":-16.078711
    },
    {
        "Nome":"TRAÇADAL",
        "LONGITUDE":-41.900251,
        "LATITUDE":-16.097059
    },
    {
        "Nome":"ÁGUA BOA",
        "LONGITUDE":-41.929057,
        "LATITUDE":-16.096034
    },
    {
        "Nome":"QUATI",
        "LONGITUDE":-41.934506,
        "LATITUDE":-16.124519
    },
    {
        "Nome":"PINDAÍBA",
        "LONGITUDE":-41.885735,
        "LATITUDE":-16.044513
    },
    {
        "Nome":"TROMBA",
        "LONGITUDE":-41.891781,
        "LATITUDE":-16.000734
    },
    {
        "Nome":"PASSAGEM DE PEDRA",
        "LONGITUDE":-41.907515,
        "LATITUDE":-15.96763
    },
    {
        "Nome":"LARANJÃO",
        "LONGITUDE":-41.904204,
        "LATITUDE":-15.936286
    },
    {
        "Nome":"SALTADOR",
        "LONGITUDE":-41.801369,
        "LATITUDE":-15.98768
    },
    {
        "Nome":"CARRETÃO",
        "LONGITUDE":-41.835696,
        "LATITUDE":-15.9981
    },
    {
        "Nome":"COVÃO",
        "LONGITUDE":-41.83637,
        "LATITUDE":-16.015118
    },
    {
        "Nome":"ITINGA",
        "LONGITUDE":-41.844183,
        "LATITUDE":-16.043483
    },
    {
        "Nome":"SÃO FELIX",
        "LONGITUDE":-41.81487,
        "LATITUDE":-16.019656
    },
    {
        "Nome":"BAIXA GRANDE",
        "LONGITUDE":-41.795108,
        "LATITUDE":-16.01983
    },
    {
        "Nome":"BANANEIRAS",
        "LONGITUDE":-41.780125,
        "LATITUDE":-15.999716
    },
    {
        "Nome":"POSTO SANTA CRUZ",
        "LONGITUDE":-41.775033,
        "LATITUDE":-16.004937
    },
    {
        "Nome":"CANDIAL",
        "LONGITUDE":-41.767528,
        "LATITUDE":-16.018041
    },
    {
        "Nome":"VEREDA",
        "LONGITUDE":-41.782162,
        "LATITUDE":-16.050523
    },
    {
        "Nome":"PEDRA REDONDA II",
        "LONGITUDE":-41.748374,
        "LATITUDE":-16.027183
    },
    {
        "Nome":"PEDRA REDONDA I",
        "LONGITUDE":-41.74237,
        "LATITUDE":-16.039524
    },
    {
        "Nome":"CATUNIN",
        "LONGITUDE":-41.724493,
        "LATITUDE":-16.045257
    },
    {
        "Nome":"SÃO ROQUE",
        "LONGITUDE":-41.709161,
        "LATITUDE":-16.028604
    },
    {
        "Nome":"SUMIDOURO",
        "LONGITUDE":-41.701063,
        "LATITUDE":-16.013681
    },
    {
        "Nome":"CANDEIA",
        "LONGITUDE":-41.685814,
        "LATITUDE":-16.01787
    },
    {
        "Nome":"BREJOS",
        "LONGITUDE":-41.725077,
        "LATITUDE":-16.063477
    },
    {
        "Nome":"SÃO ROMÃO",
        "LONGITUDE":-41.723669,
        "LATITUDE":-16.090435
    },
    {
        "Nome":"TERRA DE FEIJÃO",
        "LONGITUDE":-41.725286,
        "LATITUDE":-16.124608
    },
    {
        "Nome":"MACACO",
        "LONGITUDE":-41.70665,
        "LATITUDE":-16.139917
    },
    {
        "Nome":"BRASAMUNDO II",
        "LONGITUDE":-41.788057,
        "LATITUDE":-16.153244
    },
    {
        "Nome":"RESSACA",
        "LONGITUDE":-41.754519,
        "LATITUDE":-16.083834
    },
    {
        "Nome":"TOMÉ",
        "LONGITUDE":-41.78107,
        "LATITUDE":-16.073708
    },
    {
        "Nome":"BARREIRO BRANCO",
        "LONGITUDE":-41.80981,
        "LATITUDE":-16.084732
    },
    {
        "Nome":"BREJINHO",
        "LONGITUDE":-41.794611,
        "LATITUDE":-16.09079
    },
    {
        "Nome":"CATANDUVA",
        "LONGITUDE":-41.774025,
        "LATITUDE":-16.13386
    },
    {
        "Nome":"BARREIRO",
        "LONGITUDE":-41.746438,
        "LATITUDE":-16.157133
    }
]